# 
# Header Description:
# 
# Version: v3.0.3.1 Platform: 10 Manufacturer: Google Model: Pixel 3 XL
# 
# Raw,utcTimeMillis,TimeNanos,LeapSecond,TimeUncertaintyNanos,FullBiasNanos,BiasNanos,BiasUncertaintyNanos,DriftNanosPerSecond,DriftUncertaintyNanosPerSecond,HardwareClockDiscontinuityCount,Svid,TimeOffsetNanos,State,ReceivedSvTimeNanos,ReceivedSvTimeUncertaintyNanos,Cn0DbHz,PseudorangeRateMetersPerSecond,PseudorangeRateUncertaintyMetersPerSecond,AccumulatedDeltaRangeState,AccumulatedDeltaRangeMeters,AccumulatedDeltaRangeUncertaintyMeters,CarrierFrequencyHz,CarrierCycles,CarrierPhase,CarrierPhaseUncertainty,MultipathIndicator,SnrInDb,ConstellationType,AgcDb,BasebandCn0DbHz,FullInterSignalBiasNanos,FullInterSignalBiasUncertaintyNanos,SatelliteInterSignalBiasNanos,SatelliteInterSignalBiasUncertaintyNanos,CodeType,ChipsetElapsedRealtimeNanos
# 
# UncalAccel,utcTimeMillis,elapsedRealtimeNanos,UncalAccelXMps2,UncalAccelYMps2,UncalAccelZMps2,BiasXMps2,BiasYMps2,BiasZMps2
# 
# UncalGyro,utcTimeMillis,elapsedRealtimeNanos,UncalGyroXRadPerSec,UncalGyroYRadPerSec,UncalGyroZRadPerSec,DriftXRadPerSec,DriftYRadPerSec,DriftZRadPerSec
# 
# UncalMag,utcTimeMillis,elapsedRealtimeNanos,UncalMagXMicroT,UncalMagYMicroT,UncalMagZMicroT,BiasXMicroT,BiasYMicroT,BiasZMicroT
# 
# OrientationDeg,utcTimeMillis,elapsedRealtimeNanos,yawDeg,rollDeg,pitchDeg
# 
# Fix,Provider,LatitudeDegrees,LongitudeDegrees,AltitudeMeters,SpeedMps,AccuracyMeters,BearingDegrees,UnixTimeMillis,SpeedAccuracyMps,BearingAccuracyDegrees,elapsedRealtimeNanos
# 
# Nav,Svid,Type,Status,MessageId,Sub-messageId,Data(Bytes)
# 
# Status,UnixTimeMillis,SignalCount,SignalIndex,ConstellationType,Svid,CarrierFrequencyHz,Cn0DbHz,AzimuthDegrees,ElevationDegrees,UsedInFix,HasAlmanacData,HasEphemerisData,BasebandCn0DbHz
# 
Status,0,23,0,1,3,1575420032,25.90,174.00,26.00,0,1,0,
Status,0,23,1,1,4,1575420032,18.90,85.00,62.00,0,1,0,
Status,0,23,2,1,7,1575420032,18.60,270.00,46.00,0,1,0,
Status,0,23,3,1,9,1575420032,18.00,334.00,68.00,0,1,0,
Status,0,23,4,1,16,1575420032,16.70,54.00,40.00,0,1,0,
Status,0,23,5,1,26,1575420032,16.00,39.00,8.00,0,1,0,
Status,0,23,6,1,27,1575420032,18.10,99.00,14.00,0,1,0,
Status,0,23,7,1,30,1575420032,15.80,257.00,20.00,0,1,0,
Status,0,23,8,1,2,1575420032,0.00,0.00,0.00,0,1,0,
Status,0,23,9,1,6,1575420032,0.00,262.00,5.00,0,1,0,
Status,0,23,10,1,8,1575420032,0.00,132.00,10.00,0,1,0,
Status,0,23,11,1,20,1575420032,0.00,324.00,3.00,0,1,0,
Status,0,23,12,3,9,1602000000,17.30,28.00,49.00,0,1,0,
Status,0,23,13,3,10,1602000000,0.00,251.00,72.00,0,1,0,
Status,0,23,14,3,6,1602000000,0.00,140.00,16.00,0,1,0,
Status,0,23,15,3,1,1602000000,0.00,324.00,8.00,0,1,0,
Status,0,23,16,3,7,1602000000,0.00,126.00,68.00,0,1,0,
Status,0,23,17,3,8,1602000000,0.00,331.00,54.00,0,1,0,
Status,0,23,18,6,21,1575420032,22.50,133.00,75.00,0,1,0,
Status,0,23,19,6,27,1575420032,28.80,45.00,35.00,0,1,0,
Status,0,23,20,6,1,1575420032,0.00,202.00,33.00,0,1,0,
Status,0,23,21,6,4,1575420032,0.00,307.00,22.00,0,1,0,
Status,0,23,22,6,11,1575420032,0.00,0.00,0.00,0,1,0,
Raw,1644772044438,486766000000,,,-1328806775672485497,-0.2362518310546875,468.91410602256656,-1.0515494089956394,32.47663714535598,0,9,0.0,3,10784848,70,17.3,497.54266357421875,1.381500005722046,16,0.0,0.0,1.60087501E9,,,,0,,3,2.02,,,,,,,
Raw,1644772044438,486766000000,,,-1328806775672485497,-0.2362518310546875,468.91410602256656,-1.0515494089956394,32.47663714535598,0,3,0.0,15,61662360990165,24,25.9,688.3037109375,0.38179999589920044,16,0.0,0.0,1.57542003E9,,,,0,,1,0.4,,,,,,,
Raw,1644772044438,486766000000,,,-1328806775672485497,-0.2362518310546875,468.91410602256656,-1.0515494089956394,32.47663714535598,0,4,0.0,15,61662369233184,113,18.9,181.1215057373047,5.375,16,0.0,0.0,1.57542003E9,,,,0,,1,0.4,,,,,,,
Raw,1644772044438,486766000000,,,-1328806775672485497,-0.2362518310546875,468.91410602256656,-1.0515494089956394,32.47663714535598,0,7,0.0,15,61662365491081,663,18.6,-295.72589111328125,3.2240002155303955,16,0.0,0.0,1.57542003E9,,,,0,,1,0.4,,,,,,,
Raw,1644772044438,486766000000,,,-1328806775672485497,-0.2362518310546875,468.91410602256656,-1.0515494089956394,32.47663714535598,0,9,0.0,15,61662369845409,88,18.0,-217.8672332763672,4.090000152587891,16,0.0,0.0,1.57542003E9,,,,0,,1,0.4,,,,,,,
Raw,1644772044438,486766000000,,,-1328806775672485497,-0.2362518310546875,468.91410602256656,-1.0515494089956394,32.47663714535598,0,16,0.0,15,61662365618482,876,16.7,407.77081298828125,3.3940000534057617,16,0.0,0.0,1.57542003E9,,,,0,,1,0.4,,,,,,,
Raw,1644772044438,486766000000,,,-1328806775672485497,-0.2362518310546875,468.91410602256656,-1.0515494089956394,32.47663714535598,0,26,0.0,15,61662355919278,90,16.0,670.5473022460938,2.7790000438690186,16,0.0,0.0,1.57542003E9,,,,0,,1,0.4,,,,,,,
Raw,1644772044438,486766000000,,,-1328806775672485497,-0.2362518310546875,468.91410602256656,-1.0515494089956394,32.47663714535598,0,27,0.0,15,61662358851985,762,18.1,-413.36541748046875,3.323500156402588,16,0.0,0.0,1.57542003E9,,,,0,,1,0.4,,,,,,,
Raw,1644772044438,486766000000,,,-1328806775672485497,-0.2362518310546875,468.91410602256656,-1.0515494089956394,32.47663714535598,0,30,0.0,15,61662358773521,1008,15.8,-486.18133544921875,3.50350022315979,16,0.0,0.0,1.57542003E9,,,,0,,1,0.4,,,,,,,
Raw,1644772044438,486766000000,,,-1328806775672485497,-0.2362518310546875,468.91410602256656,-1.0515494089956394,32.47663714535598,0,21,0.0,7183,61662359807377,276,22.5,-94.5854721069336,0.7890000343322754,16,0.0,0.0,1.57542003E9,,,,0,,6,0.29,,,,,,,
Raw,1644772044438,486766000000,,,-1328806775672485497,-0.2362518310546875,468.91410602256656,-1.0515494089956394,32.47663714535598,0,27,0.0,7183,61662353297520,18,28.8,407.3902282714844,0.7630000114440918,16,0.0,0.0,1.57542003E9,,,,0,,6,0.29,,,,,,,
Status,0,23,0,1,3,1575420032,26.20,174.00,26.00,0,1,0,
Status,0,23,1,1,4,1575420032,18.90,85.00,62.00,0,1,0,
Status,0,23,2,1,7,1575420032,18.40,270.00,46.00,0,1,0,
Status,0,23,3,1,9,1575420032,18.00,334.00,68.00,0,1,0,
Status,0,23,4,1,16,1575420032,17.30,54.00,40.00,0,1,0,
Status,0,23,5,1,26,1575420032,18.00,39.00,8.00,0,1,0,
Status,0,23,6,1,27,1575420032,17.70,99.00,14.00,0,1,0,
Status,0,23,7,1,30,1575420032,15.30,257.00,20.00,0,1,0,
Status,0,23,8,1,2,1575420032,0.00,0.00,0.00,0,1,0,
Status,0,23,9,1,6,1575420032,0.00,262.00,5.00,0,1,0,
Status,0,23,10,1,8,1575420032,0.00,132.00,10.00,0,1,0,
Status,0,23,11,1,20,1575420032,0.00,324.00,3.00,0,1,0,
Status,0,23,12,3,9,1602000000,17.30,28.00,49.00,0,1,0,
Status,0,23,13,3,10,1602000000,0.00,251.00,72.00,0,1,0,
Status,0,23,14,3,6,1602000000,0.00,140.00,16.00,0,1,0,
Status,0,23,15,3,1,1602000000,0.00,324.00,8.00,0,1,0,
Status,0,23,16,3,7,1602000000,0.00,126.00,68.00,0,1,0,
Status,0,23,17,3,8,1602000000,0.00,331.00,54.00,0,1,0,
Status,0,23,18,6,21,1575420032,21.40,133.00,75.00,0,1,0,
Status,0,23,19,6,27,1575420032,26.50,45.00,35.00,0,1,0,
Status,0,23,20,6,1,1575420032,0.00,202.00,33.00,0,1,0,
Status,0,23,21,6,4,1575420032,0.00,307.00,22.00,0,1,0,
Status,0,23,22,6,11,1575420032,0.00,0.00,0.00,0,1,0,
Raw,1644772045438,487766000000,,,-1328806775672485503,-0.4053325653076172,230.3432411281392,4.675858265312992,16.312072726379476,0,9,0.0,3,10783188,80,17.3,497.54266357421875,2.881500005722046,16,0.0,0.0,1.60087501E9,,,,0,,3,1.89,,,,,,,
Raw,1644772045438,487766000000,,,-1328806775672485503,-0.4053325653076172,230.3432411281392,4.675858265312992,16.312072726379476,0,3,0.0,15,61663360987831,21,26.2,684.8828125,0.1112000048160553,16,0.0,0.0,1.57542003E9,,,,0,,1,0.24,,,,,,,
Raw,1644772045438,487766000000,,,-1328806775672485503,-0.4053325653076172,230.3432411281392,4.675858265312992,16.312072726379476,0,4,0.0,15,61663369232580,151,18.9,181.1215057373047,6.875000476837158,16,0.0,0.0,1.57542003E9,,,,0,,1,0.24,,,,,,,
Raw,1644772045438,487766000000,,,-1328806775672485503,-0.4053325653076172,230.3432411281392,4.675858265312992,16.312072726379476,0,7,0.0,15,61663365492004,772,18.4,-296.3633728027344,4.053999900817871,16,0.0,0.0,1.57542003E9,,,,0,,1,0.24,,,,,,,
Raw,1644772045438,487766000000,,,-1328806775672485503,-0.4053325653076172,230.3432411281392,4.675858265312992,16.312072726379476,0,9,0.0,15,61663369846136,117,18.0,-217.8672332763672,5.590000152587891,16,0.0,0.0,1.57542003E9,,,,0,,1,0.24,,,,,,,
Raw,1644772045438,487766000000,,,-1328806775672485503,-0.4053325653076172,230.3432411281392,4.675858265312992,16.312072726379476,0,16,0.0,15,61663365617108,887,17.3,407.1903991699219,4.144000053405762,16,0.0,0.0,1.57542003E9,,,,0,,1,0.24,,,,,,,
Raw,1644772045438,487766000000,,,-1328806775672485503,-0.4053325653076172,230.3432411281392,4.675858265312992,16.312072726379476,0,26,0.0,15,61663355917039,61,18.0,669.2057495117188,1.0989999771118164,16,0.0,0.0,1.57542003E9,,,,0,,1,0.24,,,,,,,
Raw,1644772045438,487766000000,,,-1328806775672485503,-0.4053325653076172,230.3432411281392,4.675858265312992,16.312072726379476,0,27,0.0,15,61663358853355,773,17.7,-413.270263671875,4.073500156402588,16,0.0,0.0,1.57542003E9,,,,0,,1,0.24,,,,,,,
Raw,1644772045438,487766000000,,,-1328806775672485503,-0.4053325653076172,230.3432411281392,4.675858265312992,16.312072726379476,0,30,0.0,15,61663358775163,1171,15.3,-486.6855773925781,4.3535003662109375,16,0.0,0.0,1.57542003E9,,,,0,,1,0.24,,,,,,,
Raw,1644772045438,487766000000,,,-1328806775672485503,-0.4053325653076172,230.3432411281392,4.675858265312992,16.312072726379476,0,21,0.0,7183,61663359807665,321,21.4,-95.35615539550781,1.5889999866485596,16,0.0,0.0,1.57542003E9,,,,0,,6,0.16,,,,,,,
Raw,1644772045438,487766000000,,,-1328806775672485503,-0.4053325653076172,230.3432411281392,4.675858265312992,16.312072726379476,0,27,0.0,7183,61663353296151,21,26.5,403.3377990722656,0.13670000433921814,16,0.0,0.0,1.57542003E9,,,,0,,6,0.16,,,,,,,
Fix,GPS,37.4469336,-122.1657479,-4.206055,0.000000,23.584000,0.000000,1644772046000,0.731642,0.0,914263853892,24.0
Fix,FLP,37.4469336,-122.1657479,-4.206055,0.000000,23.584000,0.000000,1644772046000,0.731642,0.0,914263853892,24.0
Status,1644772046000,23,0,1,3,1575420032,21.80,174.00,26.00,1,1,0,
Status,1644772046000,23,1,1,4,1575420032,18.90,85.00,62.00,1,1,0,
Status,1644772046000,23,2,1,7,1575420032,17.70,270.00,46.00,1,1,0,
Status,1644772046000,23,3,1,9,1575420032,18.00,334.00,68.00,1,1,0,
Status,1644772046000,23,4,1,16,1575420032,17.10,54.00,40.00,1,1,0,
Status,1644772046000,23,5,1,26,1575420032,19.80,39.00,8.00,1,1,0,
Status,1644772046000,23,6,1,27,1575420032,17.50,99.00,14.00,1,1,0,
Status,1644772046000,23,7,1,30,1575420032,15.30,257.00,20.00,1,1,0,
Status,1644772046000,23,8,1,2,1575420032,0.00,0.00,0.00,0,1,0,
Status,1644772046000,23,9,1,6,1575420032,0.00,262.00,5.00,0,1,0,
Status,1644772046000,23,10,1,8,1575420032,0.00,132.00,10.00,0,1,0,
Status,1644772046000,23,11,1,20,1575420032,0.00,324.00,3.00,0,1,0,
Status,1644772046000,23,12,3,9,1602000000,17.30,28.00,49.00,0,1,0,
Status,1644772046000,23,13,3,10,1602000000,0.00,251.00,72.00,0,1,0,
Status,1644772046000,23,14,3,6,1602000000,0.00,140.00,16.00,0,1,0,
Status,1644772046000,23,15,3,1,1602000000,0.00,324.00,8.00,0,1,0,
Status,1644772046000,23,16,3,7,1602000000,0.00,126.00,68.00,0,1,0,
Status,1644772046000,23,17,3,8,1602000000,0.00,331.00,54.00,0,1,0,
Status,1644772046000,23,18,6,21,1575420032,20.90,133.00,75.00,1,1,0,
Status,1644772046000,23,19,6,27,1575420032,26.00,45.00,35.00,1,1,0,
Status,1644772046000,23,20,6,1,1575420032,0.00,202.00,33.00,0,1,0,
Status,1644772046000,23,21,6,4,1575420032,0.00,307.00,22.00,0,1,0,
Status,1644772046000,23,22,6,11,1575420032,0.00,0.00,0.00,0,1,0,
Raw,1644772046438,488766000000,,,-1328806775672485538,-0.15484046936035156,195.38872584234923,-5.159607655802567,19.119026662984865,0,9,0.0,3,10781528,99,17.3,497.54266357421875,4.381500244140625,16,0.0,0.0,1.60087501E9,,,,0,,3,1.89,,,,,,,
Raw,1644772046438,488766000000,,,-1328806775672485538,-0.15484046936035156,195.38872584234923,-5.159607655802567,19.119026662984865,0,3,0.0,15,61664360985511,40,21.8,679.671875,0.7864999771118164,16,0.0,0.0,1.57542003E9,,,,0,,1,0.18,,,,,,,
Raw,1644772046438,488766000000,,,-1328806775672485538,-0.15484046936035156,195.38872584234923,-5.159607655802567,19.119026662984865,0,4,0.0,15,61664369231975,198,18.9,181.1215057373047,8.375,16,0.0,0.0,1.57542003E9,,,,0,,1,0.18,,,,,,,
Raw,1644772046438,488766000000,,,-1328806775672485538,-0.15484046936035156,195.38872584234923,-5.159607655802567,19.119026662984865,0,7,0.0,15,61664365493015,785,17.7,-296.7059020996094,4.803999900817871,16,0.0,0.0,1.57542003E9,,,,0,,1,0.18,,,,,,,
Raw,1644772046438,488766000000,,,-1328806775672485538,-0.15484046936035156,195.38872584234923,-5.159607655802567,19.119026662984865,0,9,0.0,15,61664369846863,156,18.0,-217.8672332763672,7.090000152587891,16,0.0,0.0,1.57542003E9,,,,0,,1,0.18,,,,,,,
Raw,1644772046438,488766000000,,,-1328806775672485538,-0.15484046936035156,195.38872584234923,-5.159607655802567,19.119026662984865,0,16,0.0,15,61664365615744,900,17.1,406.486328125,4.894000053405762,16,0.0,0.0,1.57542003E9,,,,0,,1,0.18,,,,,,,
Raw,1644772046438,488766000000,,,-1328806775672485538,-0.15484046936035156,195.38872584234923,-5.159607655802567,19.119026662984865,0,26,0.0,15,61664355914881,53,19.8,663.7633666992188,0.9389999508857727,16,0.0,0.0,1.57542003E9,,,,0,,1,0.18,,,,,,,
Raw,1644772046438,488766000000,,,-1328806775672485538,-0.15484046936035156,195.38872584234923,-5.159607655802567,19.119026662984865,0,27,0.0,15,61664358854723,786,17.5,-414.2027587890625,4.823500156402588,16,0.0,0.0,1.57542003E9,,,,0,,1,0.18,,,,,,,
Raw,1644772046438,488766000000,,,-1328806775672485538,-0.15484046936035156,195.38872584234923,-5.159607655802567,19.119026662984865,0,30,0.0,15,61664358776787,1200,15.3,-486.6855773925781,5.8535003662109375,16,0.0,0.0,1.57542003E9,,,,0,,1,0.18,,,,,,,
Raw,1644772046438,488766000000,,,-1328806775672485538,-0.15484046936035156,195.38872584234923,-5.159607655802567,19.119026662984865,0,21,0.0,7183,61664359807982,375,20.9,-96.27908325195312,2.3990001678466797,16,0.0,0.0,1.57542003E9,,,,0,,6,0.1,,,,,,,
Raw,1644772046438,488766000000,,,-1328806775672485538,-0.15484046936035156,195.38872584234923,-5.159607655802567,19.119026662984865,0,27,0.0,7183,61664353294816,21,26.0,399.7046203613281,0.13670000433921814,16,0.0,0.0,1.57542003E9,,,,0,,6,0.1,,,,,,,
Fix,GPS,37.4469981,-122.1658360,-20.086578,0.000000,22.512001,0.000000,1644772047000,0.93300587,0.0,915250622897,16.0
Fix,FLP,37.4469871,-122.1658210,-20.086578,0.087501,23.048000,312.681183,1644772047000,0.93300587,0.0,915250622897,16.0
Status,1644772047000,23,0,1,3,1575420032,31.60,174.00,26.00,1,1,0,
Status,1644772047000,23,1,1,4,1575420032,18.90,85.00,62.00,1,1,0,
Status,1644772047000,23,2,1,7,1575420032,17.00,270.00,46.00,1,1,0,
Status,1644772047000,23,3,1,9,1575420032,12.60,334.00,68.00,1,1,0,
Status,1644772047000,23,4,1,16,1575420032,16.60,54.00,40.00,1,1,0,
Status,1644772047000,23,5,1,26,1575420032,21.00,39.00,8.00,1,1,0,
Status,1644772047000,23,6,1,27,1575420032,16.90,99.00,14.00,1,1,0,
Status,1644772047000,23,7,1,30,1575420032,15.30,257.00,20.00,1,1,0,
Status,1644772047000,23,8,1,2,1575420032,0.00,0.00,0.00,0,1,0,
Status,1644772047000,23,9,1,6,1575420032,0.00,262.00,5.00,0,1,0,
Status,1644772047000,23,10,1,8,1575420032,0.00,132.00,10.00,0,1,0,
Status,1644772047000,23,11,1,20,1575420032,0.00,324.00,3.00,0,1,0,
Status,1644772047000,23,12,3,9,1602000000,17.50,28.00,49.00,0,1,0,
Status,1644772047000,23,13,3,10,1602000000,0.00,251.00,72.00,0,1,0,
Status,1644772047000,23,14,3,6,1602000000,0.00,140.00,16.00,0,1,0,
Status,1644772047000,23,15,3,1,1602000000,0.00,324.00,8.00,0,1,0,
Status,1644772047000,23,16,3,7,1602000000,0.00,126.00,68.00,0,1,0,
Status,1644772047000,23,17,3,8,1602000000,0.00,331.00,54.00,0,1,0,
Status,1644772047000,23,18,6,21,1575420032,20.00,133.00,75.00,1,1,0,
Status,1644772047000,23,19,6,27,1575420032,21.30,45.00,35.00,1,1,0,
Status,1644772047000,23,20,6,1,1575420032,0.00,202.00,33.00,0,1,0,
Status,1644772047000,23,21,6,4,1575420032,0.00,307.00,22.00,0,1,0,
Status,1644772047000,23,22,6,11,1575420032,0.00,0.00,0.00,0,1,0,
Raw,1644772047438,489766000000,,,-1328806775672485585,-0.7789516448974609,182.3643542593345,-8.09986502795047,25.981146843191425,0,9,0.0,3,10779508,80,17.5,484.96759033203125,2.881500005722046,16,0.0,0.0,1.60087501E9,,,,0,,3,1.7,,,,,,,
Raw,1644772047438,489766000000,,,-1328806775672485585,-0.7789516448974609,182.3643542593345,-8.09986502795047,25.981146843191425,0,3,0.0,15,61665360983295,13,31.6,676.7395629882812,0.025200000032782555,16,0.0,0.0,1.57542003E9,,,,0,,1,-0.28,,,,,,,
Raw,1644772047438,489766000000,,,-1328806775672485585,-0.7789516448974609,182.3643542593345,-8.09986502795047,25.981146843191425,0,4,0.0,15,61665369231371,256,18.9,181.1215057373047,9.875,16,0.0,0.0,1.57542003E9,,,,0,,1,-0.28,,,,,,,
Raw,1644772047438,489766000000,,,-1328806775672485585,-0.7789516448974609,182.3643542593345,-8.09986502795047,25.981146843191425,0,7,0.0,15,61665365494005,916,17.0,-297.5431823730469,5.644000053405762,16,0.0,0.0,1.57542003E9,,,,0,,1,-0.28,,,,,,,
Raw,1644772047438,489766000000,,,-1328806775672485585,-0.7789516448974609,182.3643542593345,-8.09986502795047,25.981146843191425,0,9,0.0,15,61665369847567,170,12.6,-224.40380859375,4.610000133514404,16,0.0,0.0,1.57542003E9,,,,0,,1,-0.28,,,,,,,
Raw,1644772047438,489766000000,,,-1328806775672485585,-0.7789516448974609,182.3643542593345,-8.09986502795047,25.981146843191425,0,16,0.0,15,61665365614394,916,16.6,405.9059143066406,5.644000053405762,16,0.0,0.0,1.57542003E9,,,,0,,1,-0.28,,,,,,,
Raw,1644772047438,489766000000,,,-1328806775672485585,-0.7789516448974609,182.3643542593345,-8.09986502795047,25.981146843191425,0,26,0.0,15,61665355912574,40,21.0,661.5274047851562,0.8689999580383301,16,0.0,0.0,1.57542003E9,,,,0,,1,-0.28,,,,,,,
Raw,1644772047438,489766000000,,,-1328806775672485585,-0.7789516448974609,182.3643542593345,-8.09986502795047,25.981146843191425,0,27,0.0,15,61665358856106,916,16.9,-414.40252685546875,5.6635003089904785,16,0.0,0.0,1.57542003E9,,,,0,,1,-0.28,,,,,,,
Raw,1644772047438,489766000000,,,-1328806775672485585,-0.7789516448974609,182.3643542593345,-8.09986502795047,25.981146843191425,0,30,0.0,15,61665358778410,1240,15.3,-486.6855773925781,7.3535003662109375,16,0.0,0.0,1.57542003E9,,,,0,,1,-0.28,,,,,,,
Raw,1644772047438,489766000000,,,-1328806775672485585,-0.7789516448974609,182.3643542593345,-8.09986502795047,25.981146843191425,0,21,0.0,7183,61665359808327,383,20.0,-96.94511413574219,3.1490001678466797,16,0.0,0.0,1.57542003E9,,,,0,,6,-0.35,,,,,,,
Raw,1644772047438,489766000000,,,-1328806775672485585,-0.7789516448974609,182.3643542593345,-8.09986502795047,25.981146843191425,0,27,0.0,7183,61665353293525,40,21.3,396.29608154296875,0.6919999718666077,16,0.0,0.0,1.57542003E9,,,,0,,6,-0.35,,,,,,,
Fix,GPS,37.4469859,-122.1657669,-14.889709,0.000000,18.224001,0.000000,1644772048000,1.2129716,0.0,916261970550,12.0
Fix,FLP,37.4469896,-122.1658002,-14.889709,0.348897,21.708000,86.548485,1644772048000,1.2129716,0.0,916261970550,12.0
Status,1644772048000,23,0,1,3,1575420032,27.70,174.00,26.00,1,1,0,
Status,1644772048000,23,1,1,4,1575420032,12.70,85.00,62.00,1,1,0,
Status,1644772048000,23,2,1,7,1575420032,17.10,270.00,46.00,1,1,0,
Status,1644772048000,23,3,1,9,1575420032,18.40,334.00,68.00,1,1,0,
Status,1644772048000,23,4,1,16,1575420032,16.30,54.00,40.00,1,1,0,
Status,1644772048000,23,5,1,26,1575420032,17.70,39.00,8.00,1,1,0,
Status,1644772048000,23,6,1,27,1575420032,16.40,99.00,14.00,1,1,0,
Status,1644772048000,23,7,1,30,1575420032,13.80,257.00,20.00,1,1,0,
Status,1644772048000,23,8,1,2,1575420032,0.00,0.00,0.00,0,1,0,
Status,1644772048000,23,9,1,6,1575420032,0.00,262.00,5.00,0,1,0,
Status,1644772048000,23,10,1,8,1575420032,0.00,132.00,10.00,0,1,0,
Status,1644772048000,23,11,1,20,1575420032,0.00,324.00,3.00,0,1,0,
Status,1644772048000,23,12,3,9,1602000000,23.40,28.00,49.00,0,1,0,
Status,1644772048000,23,13,3,10,1602000000,0.00,251.00,72.00,0,1,0,
Status,1644772048000,23,14,3,6,1602000000,0.00,140.00,16.00,0,1,0,
Status,1644772048000,23,15,3,1,1602000000,0.00,324.00,8.00,0,1,0,
Status,1644772048000,23,16,3,7,1602000000,0.00,126.00,68.00,0,1,0,
Status,1644772048000,23,17,3,8,1602000000,0.00,331.00,54.00,0,1,0,
Status,1644772048000,23,18,6,1,1575420032,16.90,202.00,33.00,0,1,0,
Status,1644772048000,23,19,6,21,1575420032,19.00,133.00,75.00,1,1,0,
Status,1644772048000,23,20,6,27,1575420032,23.00,45.00,35.00,1,1,0,
Status,1644772048000,23,21,6,4,1575420032,0.00,307.00,22.00,0,1,0,
Status,1644772048000,23,22,6,11,1575420032,0.00,0.00,0.00,0,1,0,
Raw,1644772048438,490766000000,,,-1328806775672485586,-0.22598648071289062,168.29864762257785,-11.70955268396804,29.041366849411684,0,9,0.0,3,10777962,31,23.4,491.4096374511719,0.9414999485015869,16,0.0,0.0,1.60087501E9,,,,0,,3,1.96,,,,,,,
Raw,1644772048438,490766000000,,,-1328806775672485586,-0.22598648071289062,168.29864762257785,-11.70955268396804,29.041366849411684,0,3,0.0,15,61666360981049,19,27.7,681.4130859375,0.4964999854564667,16,0.0,0.0,1.57542003E9,,,,0,,1,0.21,,,,,,,
Raw,1644772048438,490766000000,,,-1328806775672485586,-0.22598648071289062,168.29864762257785,-11.70955268396804,29.041366849411684,0,4,0.0,15,61666369230931,201,12.7,176.83990478515625,6.110000133514404,16,0.0,0.0,1.57542003E9,,,,0,,1,0.21,,,,,,,
Raw,1644772048438,490766000000,,,-1328806775672485586,-0.22598648071289062,168.29864762257785,-11.70955268396804,29.041366849411684,0,7,0.0,15,61666365495013,934,17.1,-298.5707702636719,6.394000053405762,16,0.0,0.0,1.57542003E9,,,,0,,1,0.21,,,,,,,
Raw,1644772048438,490766000000,,,-1328806775672485586,-0.22598648071289062,168.29864762257785,-11.70955268396804,29.041366849411684,0,9,0.0,15,61666369848493,61,18.4,-223.062255859375,1.0899999141693115,16,0.0,0.0,1.57542003E9,,,,0,,1,0.21,,,,,,,
Raw,1644772048438,490766000000,,,-1328806775672485586,-0.22598648071289062,168.29864762257785,-11.70955268396804,29.041366849411684,0,16,0.0,15,61666365613122,1066,16.3,404.53582763671875,6.484000205993652,16,0.0,0.0,1.57542003E9,,,,0,,1,0.21,,,,,,,
Raw,1644772048438,490766000000,,,-1328806775672485586,-0.22598648071289062,168.29864762257785,-11.70955268396804,29.041366849411684,0,26,0.0,15,61666355910477,70,17.7,665.7328491210938,1.0989999771118164,16,0.0,0.0,1.57542003E9,,,,0,,1,0.21,,,,,,,
Raw,1644772048438,490766000000,,,-1328806775672485586,-0.22598648071289062,168.29864762257785,-11.70955268396804,29.041366849411684,0,27,0.0,15,61666358857479,1067,16.4,-414.44061279296875,6.503500461578369,16,0.0,0.0,1.57542003E9,,,,0,,1,0.21,,,,,,,
Raw,1644772048438,490766000000,,,-1328806775672485586,-0.22598648071289062,168.29864762257785,-11.70955268396804,29.041366849411684,0,30,0.0,15,61666358780071,1395,13.8,-487.3325500488281,6.7235002517700195,16,0.0,0.0,1.57542003E9,,,,0,,1,0.21,,,,,,,
Raw,1644772048438,490766000000,,,-1328806775672485586,-0.22598648071289062,168.29864762257785,-11.70955268396804,29.041366849411684,0,1,0.0,7183,61666352795092,676,16.9,-511.4618225097656,4.1705002784729,16,0.0,0.0,1.57542003E9,,,,0,,6,0.16,,,,,,,
Raw,1644772048438,490766000000,,,-1328806775672485586,-0.22598648071289062,168.29864762257785,-11.70955268396804,29.041366849411684,0,21,0.0,7183,61666359808656,450,19.0,-97.11637878417969,3.9590001106262207,16,0.0,0.0,1.57542003E9,,,,0,,6,0.16,,,,,,,
Raw,1644772048438,490766000000,,,-1328806775672485586,-0.22598648071289062,168.29864762257785,-11.70955268396804,29.041366849411684,0,27,0.0,7183,61666353292175,31,23.0,400.5110778808594,0.6019999980926514,16,0.0,0.0,1.57542003E9,,,,0,,6,0.16,,,,,,,
Fix,GPS,37.4470711,-122.1660627,-15.650208,0.000000,17.152000,0.000000,1644772049000,0.75179785,0.0,917266739295,12.0
Fix,FLP,37.4470193,-122.1658879,-15.650208,3.481047,20.368000,294.020081,1644772049000,0.75179785,0.0,917266739295,12.0
Status,1644772049000,23,0,1,3,1575420032,28.40,174.00,26.00,1,1,0,
Status,1644772049000,23,1,1,4,1575420032,12.70,85.00,62.00,1,1,0,
Status,1644772049000,23,2,1,7,1575420032,16.70,270.00,46.00,1,1,0,
Status,1644772049000,23,3,1,9,1575420032,18.40,334.00,68.00,1,1,0,
Status,1644772049000,23,4,1,16,1575420032,16.20,54.00,40.00,1,1,0,
Status,1644772049000,23,5,1,26,1575420032,19.80,39.00,8.00,1,1,0,
Status,1644772049000,23,6,1,27,1575420032,16.00,99.00,14.00,1,1,0,
Status,1644772049000,23,7,1,30,1575420032,14.80,257.00,20.00,1,1,0,
Status,1644772049000,23,8,1,2,1575420032,0.00,0.00,0.00,0,1,0,
Status,1644772049000,23,9,1,6,1575420032,0.00,262.00,5.00,0,1,0,
Status,1644772049000,23,10,1,8,1575420032,0.00,132.00,10.00,0,1,0,
Status,1644772049000,23,11,1,20,1575420032,0.00,324.00,3.00,0,1,0,
Status,1644772049000,23,12,3,9,1602000000,22.30,28.00,49.00,0,1,0,
Status,1644772049000,23,13,3,10,1602000000,0.00,251.00,72.00,0,1,0,
Status,1644772049000,23,14,3,6,1602000000,0.00,140.00,16.00,0,1,0,
Status,1644772049000,23,15,3,1,1602000000,0.00,324.00,8.00,0,1,0,
Status,1644772049000,23,16,3,7,1602000000,0.00,126.00,68.00,0,1,0,
Status,1644772049000,23,17,3,8,1602000000,0.00,331.00,54.00,0,1,0,
Status,1644772049000,23,18,6,1,1575420032,19.20,202.00,33.00,1,1,0,
Status,1644772049000,23,19,6,21,1575420032,18.20,133.00,75.00,1,1,0,
Status,1644772049000,23,20,6,27,1575420032,23.00,45.00,35.00,1,1,0,
Status,1644772049000,23,21,6,4,1575420032,0.00,307.00,22.00,0,1,0,
Status,1644772049000,23,22,6,11,1575420032,0.00,0.00,0.00,0,1,0,
Raw,1644772049438,491766000000,,,-1328806775672485656,-0.8872928619384766,139.33234731666744,-16.995042233773955,16.25654159055502,0,9,0.0,3,10776344,35,22.3,493.8628234863281,1.0015000104904175,16,0.0,0.0,1.60087501E9,,,,0,,3,2.11,,,,,,,
Raw,1644772049438,491766000000,,,-1328806775672485656,-0.8872928619384766,139.33234731666744,-16.995042233773955,16.25654159055502,0,3,0.0,15,61667360978757,17,28.4,687.5125122070312,0.0333000011742115,16,0.0,0.0,1.57542003E9,,,,0,,1,-0.03,,,,,,,
Raw,1644772049438,491766000000,,,-1328806775672485656,-0.8872928619384766,139.33234731666744,-16.995042233773955,16.25654159055502,0,4,0.0,15,61667369230341,241,12.7,176.83990478515625,7.610000133514404,16,0.0,0.0,1.57542003E9,,,,0,,1,-0.03,,,,,,,
Raw,1644772049438,491766000000,,,-1328806775672485656,-0.8872928619384766,139.33234731666744,-16.995042233773955,16.25654159055502,0,7,0.0,15,61667365496005,955,16.7,-298.3995056152344,7.144000053405762,16,0.0,0.0,1.57542003E9,,,,0,,1,-0.03,,,,,,,
Raw,1644772049438,491766000000,,,-1328806775672485656,-0.8872928619384766,139.33234731666744,-16.995042233773955,16.25654159055502,0,9,0.0,15,61667369849237,69,18.4,-223.062255859375,2.5899999141693115,16,0.0,0.0,1.57542003E9,,,,0,,1,-0.03,,,,,,,
Raw,1644772049438,491766000000,,,-1328806775672485656,-0.8872928619384766,139.33234731666744,-16.995042233773955,16.25654159055502,0,16,0.0,15,61667365611772,1087,16.2,404.6214294433594,7.234000205993652,16,0.0,0.0,1.57542003E9,,,,0,,1,-0.03,,,,,,,
Raw,1644772049438,491766000000,,,-1328806775672485656,-0.8872928619384766,139.33234731666744,-16.995042233773955,16.25654159055502,0,26,0.0,15,61667355908026,53,19.8,669.7385864257812,0.9389999508857727,16,0.0,0.0,1.57542003E9,,,,0,,1,-0.03,,,,,,,
Raw,1644772049438,491766000000,,,-1328806775672485656,-0.8872928619384766,139.33234731666744,-16.995042233773955,16.25654159055502,0,27,0.0,15,61667358858861,1087,16.0,-414.2883605957031,7.253500461578369,16,0.0,0.0,1.57542003E9,,,,0,,1,-0.03,,,,,,,
Raw,1644772049438,491766000000,,,-1328806775672485656,-0.8872928619384766,139.33234731666744,-16.995042233773955,16.25654159055502,0,30,0.0,15,61667358781708,1240,14.8,-487.2945251464844,7.3535003662109375,16,0.0,0.0,1.57542003E9,,,,0,,1,-0.03,,,,,,,
Raw,1644772049438,491766000000,,,-1328806775672485656,-0.8872928619384766,139.33234731666744,-16.995042233773955,16.25654159055502,0,1,0.0,7183,61667352796790,463,19.2,-507.2753601074219,4.710500240325928,16,0.0,0.0,1.57542003E9,,,,0,,6,-0.1,,,,,,,
Raw,1644772049438,491766000000,,,-1328806775672485656,-0.8872928619384766,139.33234731666744,-16.995042233773955,16.25654159055502,0,21,0.0,7183,61667359808972,528,18.2,-97.27812957763672,4.769000053405762,16,0.0,0.0,1.57542003E9,,,,0,,6,-0.1,,,,,,,
Raw,1644772049438,491766000000,,,-1328806775672485656,-0.8872928619384766,139.33234731666744,-16.995042233773955,16.25654159055502,0,27,0.0,7183,61667353290839,38,23.0,400.5110778808594,2.1019999980926514,16,0.0,0.0,1.57542003E9,,,,0,,6,-0.1,,,,,,,
Fix,GPS,37.4470535,-122.1660293,-9.670929,0.000000,18.224001,0.000000,1644772050000,0.77472574,0.0,918253635956,16.0
Fix,FLP,37.4470534,-122.1660092,-9.670929,6.688174,19.698000,290.644501,1644772050000,0.77472574,0.0,918253635956,16.0
Status,1644772050000,23,0,1,3,1575420032,29.50,174.00,26.00,1,1,0,
Status,1644772050000,23,1,1,4,1575420032,12.70,85.00,62.00,1,1,0,
Status,1644772050000,23,2,1,7,1575420032,17.10,270.00,46.00,1,1,0,
Status,1644772050000,23,3,1,9,1575420032,18.40,334.00,68.00,1,1,0,
Status,1644772050000,23,4,1,16,1575420032,16.20,54.00,40.00,1,1,0,
Status,1644772050000,23,5,1,26,1575420032,16.70,39.00,8.00,1,1,0,
Status,1644772050000,23,6,1,27,1575420032,16.00,99.00,14.00,1,1,0,
Status,1644772050000,23,7,1,30,1575420032,18.80,257.00,20.00,1,1,0,
Status,1644772050000,23,8,1,2,1575420032,0.00,0.00,0.00,0,1,0,
Status,1644772050000,23,9,1,6,1575420032,0.00,262.00,5.00,0,1,0,
Status,1644772050000,23,10,1,8,1575420032,0.00,132.00,10.00,0,1,0,
Status,1644772050000,23,11,1,20,1575420032,0.00,324.00,3.00,0,1,0,
Status,1644772050000,23,12,3,9,1602000000,22.90,28.00,49.00,0,1,0,
Status,1644772050000,23,13,3,10,1602000000,0.00,251.00,72.00,0,1,0,
Status,1644772050000,23,14,3,6,1602000000,0.00,140.00,16.00,0,1,0,
Status,1644772050000,23,15,3,1,1602000000,0.00,324.00,8.00,0,1,0,
Status,1644772050000,23,16,3,7,1602000000,0.00,126.00,68.00,0,1,0,
Status,1644772050000,23,17,3,8,1602000000,0.00,331.00,54.00,0,1,0,
Status,1644772050000,23,18,6,1,1575420032,25.20,202.00,33.00,1,1,0,
Status,1644772050000,23,19,6,21,1575420032,18.20,133.00,75.00,1,1,0,
Status,1644772050000,23,20,6,27,1575420032,23.00,45.00,35.00,1,1,0,
Status,1644772050000,23,21,6,4,1575420032,0.00,307.00,22.00,0,1,0,
Status,1644772050000,23,22,6,11,1575420032,0.00,0.00,0.00,0,1,0,
Raw,1644772050438,492766000000,,,-1328806775672485643,-0.4166431427001953,139.54826863482594,-7.6812302801775205,20.775336273969423,0,9,0.0,3,10774775,35,22.9,482.1211242675781,1.0015000104904175,16,0.0,0.0,1.60087501E9,,,,0,,3,1.63,,,,,,,
Raw,1644772050438,492766000000,,,-1328806775672485643,-0.4166431427001953,139.54826863482594,-7.6812302801775205,20.775336273969423,0,3,0.0,15,61668360976485,16,29.5,675.3997802734375,0.4165000021457672,16,0.0,0.0,1.57542003E9,,,,0,,1,-0.33,,,,,,,
Raw,1644772050438,492766000000,,,-1328806775672485643,-0.4166431427001953,139.54826863482594,-7.6812302801775205,20.775336273969423,0,4,0.0,15,61668369229751,292,12.7,176.83990478515625,9.110000610351562,16,0.0,0.0,1.57542003E9,,,,0,,1,-0.33,,,,,,,
Raw,1644772050438,492766000000,,,-1328806775672485643,-0.4166431427001953,139.54826863482594,-7.6812302801775205,20.775336273969423,0,7,0.0,15,61668365496953,70,17.1,-307.41943359375,1.1859999895095825,16,0.0,0.0,1.57542003E9,,,,0,,1,-0.33,,,,,,,
Raw,1644772050438,492766000000,,,-1328806775672485643,-0.4166431427001953,139.54826863482594,-7.6812302801775205,20.775336273969423,0,9,0.0,15,61668369849981,88,18.4,-223.062255859375,4.090000152587891,16,0.0,0.0,1.57542003E9,,,,0,,1,-0.33,,,,,,,
Raw,1644772050438,492766000000,,,-1328806775672485643,-0.4166431427001953,139.54826863482594,-7.6812302801775205,20.775336273969423,0,16,0.0,15,61668365610422,1136,16.2,404.6214294433594,8.734000205993652,16,0.0,0.0,1.57542003E9,,,,0,,1,-0.33,,,,,,,
Raw,1644772050438,492766000000,,,-1328806775672485643,-0.4166431427001953,139.54826863482594,-7.6812302801775205,20.775336273969423,0,26,0.0,15,61668355905973,81,16.7,659.1963500976562,1.1890000104904175,16,0.0,0.0,1.57542003E9,,,,0,,1,-0.33,,,,,,,
Raw,1644772050438,492766000000,,,-1328806775672485643,-0.4166431427001953,139.54826863482594,-7.6812302801775205,20.775336273969423,0,27,0.0,15,61668358860242,1137,16.0,-414.2883605957031,8.753499984741211,16,0.0,0.0,1.57542003E9,,,,0,,1,-0.33,,,,,,,
Raw,1644772050438,492766000000,,,-1328806775672485643,-0.4166431427001953,139.54826863482594,-7.6812302801775205,20.775336273969423,0,30,0.0,15,61668358783304,61,18.8,-498.8834228515625,0.9965000152587891,16,0.0,0.0,1.57542003E9,,,,0,,1,-0.33,,,,,,,
Raw,1644772050438,492766000000,,,-1328806775672485643,-0.4166431427001953,139.54826863482594,-7.6812302801775205,20.775336273969423,0,1,0.0,7183,61668352798493,24,25.2,-517.096435546875,0.384799987077713,16,0.0,0.0,1.57542003E9,,,,0,,6,-0.28,,,,,,,
Raw,1644772050438,492766000000,,,-1328806775672485643,-0.4166431427001953,139.54826863482594,-7.6812302801775205,20.775336273969423,0,21,0.0,7183,61668359809296,562,18.2,-97.27812957763672,6.269000053405762,16,0.0,0.0,1.57542003E9,,,,0,,6,-0.28,,,,,,,
Raw,1644772050438,492766000000,,,-1328806775672485643,-0.4166431427001953,139.54826863482594,-7.6812302801775205,20.775336273969423,0,27,0.0,7183,61668353289503,55,23.0,400.5110778808594,3.6020002365112305,16,0.0,0.0,1.57542003E9,,,,0,,6,-0.28,,,,,,,
Fix,GPS,37.4469529,-122.1658355,-5.526978,0.000000,13.936001,0.000000,1644772051000,1.3724431,0.0,919252660587,16.0
Fix,FLP,37.4469982,-122.1659266,-5.526978,1.348157,19.056999,201.959961,1644772051000,1.3724431,0.0,919252660587,16.0
Status,1644772051000,23,0,1,3,1575420032,29.60,174.00,26.00,1,1,0,
Status,1644772051000,23,1,1,4,1575420032,12.70,85.00,62.00,1,1,0,
Status,1644772051000,23,2,1,7,1575420032,17.10,270.00,46.00,1,1,0,
Status,1644772051000,23,3,1,9,1575420032,14.80,334.00,68.00,1,1,0,
Status,1644772051000,23,4,1,16,1575420032,16.20,54.00,40.00,1,1,0,
Status,1644772051000,23,5,1,26,1575420032,20.40,39.00,8.00,1,1,0,
Status,1644772051000,23,6,1,27,1575420032,16.00,99.00,14.00,1,1,0,
Status,1644772051000,23,7,1,30,1575420032,21.70,257.00,20.00,1,1,0,
Status,1644772051000,23,8,1,2,1575420032,0.00,0.00,0.00,0,1,0,
Status,1644772051000,23,9,1,6,1575420032,0.00,262.00,5.00,0,1,0,
Status,1644772051000,23,10,1,8,1575420032,0.00,132.00,10.00,0,1,0,
Status,1644772051000,23,11,1,20,1575420032,0.00,324.00,3.00,0,1,0,
Status,1644772051000,23,12,3,9,1602000000,23.30,28.00,49.00,0,1,0,
Status,1644772051000,23,13,3,10,1602000000,0.00,251.00,72.00,0,1,0,
Status,1644772051000,23,14,3,6,1602000000,0.00,140.00,16.00,0,1,0,
Status,1644772051000,23,15,3,1,1602000000,0.00,324.00,8.00,0,1,0,
Status,1644772051000,23,16,3,7,1602000000,0.00,126.00,68.00,0,1,0,
Status,1644772051000,23,17,3,8,1602000000,0.00,331.00,54.00,0,1,0,
Status,1644772051000,23,18,6,1,1575420032,26.20,202.00,33.00,1,1,0,
Status,1644772051000,23,19,6,21,1575420032,18.20,133.00,75.00,1,1,0,
Status,1644772051000,23,20,6,27,1575420032,15.10,45.00,35.00,1,1,0,
Status,1644772051000,23,21,6,4,1575420032,0.00,307.00,22.00,0,1,0,
Status,1644772051000,23,22,6,11,1575420032,0.00,0.00,0.00,0,1,0,
Raw,1644772051438,493766000000,,,-1328806775672485647,-0.2313404083251953,105.1197323249653,-14.299594334374582,26.63871514647521,0,9,0.0,3,10773057,31,23.3,481.6529541015625,0.9414999485015869,16,0.0,0.0,1.60087501E9,,,,0,,3,1.74,,,,,,,
Raw,1644772051438,493766000000,,,-1328806775672485647,-0.2313404083251953,105.1197323249653,-14.299594334374582,26.63871514647521,0,3,0.0,15,61669360974240,16,29.6,674.489013671875,0.02670000120997429,16,0.0,0.0,1.57542003E9,,,,0,,1,-0.38,,,,,,,
Raw,1644772051438,493766000000,,,-1328806775672485647,-0.2313404083251953,105.1197323249653,-14.299594334374582,26.63871514647521,0,4,0.0,15,61669369229161,352,12.7,176.83990478515625,10.610000610351562,16,0.0,0.0,1.57542003E9,,,,0,,1,-0.38,,,,,,,
Raw,1644772051438,493766000000,,,-1328806775672485647,-0.2313404083251953,105.1197323249653,-14.299594334374582,26.63871514647521,0,7,0.0,15,61669365497978,78,17.1,-307.41943359375,2.614000082015991,16,0.0,0.0,1.57542003E9,,,,0,,1,-0.38,,,,,,,
Raw,1644772051438,493766000000,,,-1328806775672485647,-0.2313404083251953,105.1197323249653,-14.299594334374582,26.63871514647521,0,9,0.0,15,61669369850617,116,14.8,-228.2858123779297,2.870000123977661,16,0.0,0.0,1.57542003E9,,,,0,,1,-0.38,,,,,,,
Raw,1644772051438,493766000000,,,-1328806775672485647,-0.2313404083251953,105.1197323249653,-14.299594334374582,26.63871514647521,0,16,0.0,15,61669365609072,1195,16.2,404.6214294433594,10.234000205993652,16,0.0,0.0,1.57542003E9,,,,0,,1,-0.38,,,,,,,
Raw,1644772051438,493766000000,,,-1328806775672485647,-0.2313404083251953,105.1197323249653,-14.299594334374582,26.63871514647521,0,26,0.0,15,61669355903746,46,20.4,656.47509765625,0.9539999961853027,16,0.0,0.0,1.57542003E9,,,,0,,1,-0.38,,,,,,,
Raw,1644772051438,493766000000,,,-1328806775672485647,-0.2313404083251953,105.1197323249653,-14.299594334374582,26.63871514647521,0,27,0.0,15,61669358861624,1196,16.0,-414.2883605957031,10.253499984741211,16,0.0,0.0,1.57542003E9,,,,0,,1,-0.38,,,,,,,
Raw,1644772051438,493766000000,,,-1328806775672485647,-0.2313404083251953,105.1197323249653,-14.299594334374582,26.63871514647521,0,30,0.0,15,61669358785098,40,21.7,-499.3591613769531,0.828499972820282,16,0.0,0.0,1.57542003E9,,,,0,,1,-0.38,,,,,,,
Raw,1644772051438,493766000000,,,-1328806775672485647,-0.2313404083251953,105.1197323249653,-14.299594334374582,26.63871514647521,0,1,0.0,7183,61669352800206,21,26.2,-517.75048828125,0.1502000093460083,16,0.0,0.0,1.57542003E9,,,,0,,6,-0.47,,,,,,,
Raw,1644772051438,493766000000,,,-1328806775672485647,-0.2313404083251953,105.1197323249653,-14.299594334374582,26.63871514647521,0,21,0.0,7183,61669359809621,607,18.2,-97.27812957763672,7.76900053024292,16,0.0,0.0,1.57542003E9,,,,0,,6,-0.47,,,,,,,
Raw,1644772051438,493766000000,,,-1328806775672485647,-0.2313404083251953,105.1197323249653,-14.299594334374582,26.63871514647521,0,27,0.0,7183,61669353288194,101,15.1,393.27044677734375,2.6019999980926514,16,0.0,0.0,1.57542003E9,,,,0,,6,-0.47,,,,,,,
Fix,GPS,37.4469819,-122.1659390,-11.965393,0.000000,10.720000,0.000000,1644772052000,1.6572266,0.0,920256294333,16.0
Fix,FLP,37.4469833,-122.1659372,-11.965393,1.562948,17.018000,205.516449,1644772052000,1.6572266,0.0,920256294333,16.0
Status,1644772052000,23,0,1,3,1575420032,28.50,174.00,26.00,1,1,0,
Status,1644772052000,23,1,1,4,1575420032,12.70,85.00,62.00,1,1,0,
Status,1644772052000,23,2,1,7,1575420032,14.70,270.00,46.00,1,1,0,
Status,1644772052000,23,3,1,9,1575420032,16.90,334.00,68.00,1,1,0,
Status,1644772052000,23,4,1,16,1575420032,15.60,54.00,40.00,1,1,0,
Status,1644772052000,23,5,1,26,1575420032,22.40,39.00,8.00,1,1,0,
Status,1644772052000,23,6,1,27,1575420032,16.00,99.00,14.00,1,1,0,
Status,1644772052000,23,7,1,30,1575420032,19.80,257.00,20.00,1,1,0,
Status,1644772052000,23,8,1,2,1575420032,0.00,0.00,0.00,0,1,0,
Status,1644772052000,23,9,1,6,1575420032,0.00,262.00,5.00,0,1,0,
Status,1644772052000,23,10,1,8,1575420032,0.00,132.00,10.00,0,1,0,
Status,1644772052000,23,11,1,20,1575420032,0.00,324.00,3.00,0,1,0,
Status,1644772052000,23,12,3,9,1602000000,23.80,28.00,49.00,0,1,0,
Status,1644772052000,23,13,3,10,1602000000,0.00,251.00,72.00,0,1,0,
Status,1644772052000,23,14,3,6,1602000000,0.00,140.00,16.00,0,1,0,
Status,1644772052000,23,15,3,1,1602000000,0.00,324.00,8.00,0,1,0,
Status,1644772052000,23,16,3,7,1602000000,0.00,126.00,68.00,0,1,0,
Status,1644772052000,23,17,3,8,1602000000,0.00,331.00,54.00,0,1,0,
Status,1644772052000,23,18,6,1,1575420032,25.50,202.00,33.00,1,1,0,
Status,1644772052000,23,19,6,21,1575420032,14.60,133.00,75.00,1,1,0,
Status,1644772052000,23,20,6,27,1575420032,20.60,45.00,35.00,1,1,0,
Status,1644772052000,23,21,6,4,1575420032,0.00,307.00,22.00,0,1,0,
Status,1644772052000,23,22,6,11,1575420032,0.00,0.00,0.00,0,1,0,
Fix,GPS,37.4469506,-122.1658364,-20.393311,0.000000,10.720000,0.000000,1644772053000,1.8200275,0.0,921258777141,16.0
Raw,1644772052438,494766000000,,,-1328806775672485715,-0.5084609985351562,92.55119221052155,-26.645382763734574,26.133929439437924,0,9,0.0,3,10771370,31,23.8,481.4750671386719,0.9414999485015869,16,0.0,0.0,1.60087501E9,,,,0,,3,1.83,,,,,,,
Raw,1644772052438,494766000000,,,-1328806775672485715,-0.5084609985351562,92.55119221052155,-26.645382763734574,26.133929439437924,0,3,0.0,15,61670360971992,17,28.5,674.102294921875,0.0333000011742115,16,0.0,0.0,1.57542003E9,,,,0,,1,-0.25,,,,,,,
Raw,1644772052438,494766000000,,,-1328806775672485715,-0.5084609985351562,92.55119221052155,-26.645382763734574,26.133929439437924,0,4,0.0,15,61670369228572,423,12.7,176.83990478515625,12.110000610351562,16,0.0,0.0,1.57542003E9,,,,0,,1,-0.25,,,,,,,
Raw,1644772052438,494766000000,,,-1328806775672485715,-0.5084609985351562,92.55119221052155,-26.645382763734574,26.133929439437924,0,7,0.0,15,61670365499091,110,14.7,-309.04644775390625,2.114000082015991,16,0.0,0.0,1.57542003E9,,,,0,,1,-0.25,,,,,,,
Raw,1644772052438,494766000000,,,-1328806775672485715,-0.5084609985351562,92.55119221052155,-26.645382763734574,26.133929439437924,0,9,0.0,15,61670369851328,80,16.9,-229.3134002685547,1.1799999475479126,16,0.0,0.0,1.57542003E9,,,,0,,1,-0.25,,,,,,,
Raw,1644772052438,494766000000,,,-1328806775672485715,-0.5084609985351562,92.55119221052155,-26.645382763734574,26.133929439437924,0,16,0.0,15,61670365607639,101,15.6,395.3446350097656,2.7039999961853027,16,0.0,0.0,1.57542003E9,,,,0,,1,-0.25,,,,,,,
Raw,1644772052438,494766000000,,,-1328806775672485715,-0.5084609985351562,92.55119221052155,-26.645382763734574,26.133929439437924,0,26,0.0,15,61670355901632,35,22.4,657.2743530273438,0.8240000009536743,16,0.0,0.0,1.57542003E9,,,,0,,1,-0.25,,,,,,,
Raw,1644772052438,494766000000,,,-1328806775672485715,-0.5084609985351562,92.55119221052155,-26.645382763734574,26.133929439437924,0,27,0.0,15,61670358863006,1265,16.0,-414.2883605957031,11.753500938415527,16,0.0,0.0,1.57542003E9,,,,0,,1,-0.25,,,,,,,
Raw,1644772052438,494766000000,,,-1328806775672485715,-0.5084609985351562,92.55119221052155,-26.645382763734574,26.133929439437924,0,30,0.0,15,61670358786654,53,19.8,-499.82537841796875,0.9584999680519104,16,0.0,0.0,1.57542003E9,,,,0,,1,-0.25,,,,,,,
Raw,1644772052438,494766000000,,,-1328806775672485715,-0.5084609985351562,92.55119221052155,-26.645382763734574,26.133929439437924,0,1,0.0,7183,61670352801936,24,25.5,-518.0966796875,0.42080000042915344,16,0.0,0.0,1.57542003E9,,,,0,,6,-0.35,,,,,,,
Raw,1644772052438,494766000000,,,-1328806775672485715,-0.5084609985351562,92.55119221052155,-26.645382763734574,26.133929439437924,0,21,0.0,7183,61670359810040,115,14.6,-108.02971649169922,2.628999948501587,16,0.0,0.0,1.57542003E9,,,,0,,6,-0.35,,,,,,,
Raw,1644772052438,494766000000,,,-1328806775672485715,-0.5084609985351562,92.55119221052155,-26.645382763734574,26.133929439437924,0,27,0.0,7183,61670353286912,46,20.6,391.8432312011719,0.7669999599456787,16,0.0,0.0,1.57542003E9,,,,0,,6,-0.35,,,,,,,
Fix,FLP,37.4469575,-122.1658740,-20.393311,2.813905,15.544000,135.902893,1644772053000,1.8200275,0.0,921258777141,16.0
Status,1644772053000,23,0,1,3,1575420032,30.30,174.00,26.00,1,1,0,
Status,1644772053000,23,1,1,4,1575420032,12.70,85.00,62.00,1,1,0,
Status,1644772053000,23,2,1,7,1575420032,14.70,270.00,46.00,1,1,0,
Status,1644772053000,23,3,1,9,1575420032,16.90,334.00,68.00,1,1,0,
Status,1644772053000,23,4,1,16,1575420032,17.10,54.00,40.00,1,1,0,
Status,1644772053000,23,5,1,26,1575420032,18.00,39.00,8.00,1,1,0,
Status,1644772053000,23,6,1,27,1575420032,16.00,99.00,14.00,1,1,0,
Status,1644772053000,23,7,1,30,1575420032,18.80,257.00,20.00,1,1,0,
Status,1644772053000,23,8,1,2,1575420032,0.00,0.00,0.00,0,1,0,
Status,1644772053000,23,9,1,6,1575420032,0.00,262.00,5.00,0,1,0,
Status,1644772053000,23,10,1,8,1575420032,0.00,132.00,10.00,0,1,0,
Status,1644772053000,23,11,1,20,1575420032,0.00,324.00,3.00,0,1,0,
Status,1644772053000,23,12,3,9,1602000000,23.70,28.00,49.00,0,1,0,
Status,1644772053000,23,13,3,10,1602000000,0.00,251.00,72.00,0,1,0,
Status,1644772053000,23,14,3,6,1602000000,0.00,140.00,16.00,0,1,0,
Status,1644772053000,23,15,3,1,1602000000,0.00,324.00,8.00,0,1,0,
Status,1644772053000,23,16,3,7,1602000000,0.00,126.00,68.00,0,1,0,
Status,1644772053000,23,17,3,8,1602000000,0.00,331.00,54.00,0,1,0,
Status,1644772053000,23,18,6,1,1575420032,25.50,202.00,33.00,1,1,0,
Status,1644772053000,23,19,6,21,1575420032,14.60,133.00,75.00,1,1,0,
Status,1644772053000,23,20,6,27,1575420032,20.40,45.00,35.00,1,1,0,
Status,1644772053000,23,21,6,4,1575420032,0.00,307.00,22.00,0,1,0,
Status,1644772053000,23,22,6,11,1575420032,0.00,0.00,0.00,0,1,0,
Raw,1644772053438,495766000000,,,-1328806775672485775,-0.4409313201904297,90.3859399841167,-32.28983570418027,26.576832914344305,0,9,0.0,3,10769933,31,23.7,480.7072448730469,0.9414999485015869,16,0.0,0.0,1.60087501E9,,,,0,,3,1.83,,,,,,,
Raw,1644772053438,495766000000,,,-1328806775672485775,-0.4409313201904297,90.3859399841167,-32.28983570418027,26.576832914344305,0,3,0.0,15,61671360969724,14,30.3,673.5770263671875,0.025800000876188278,16,0.0,0.0,1.57542003E9,,,,0,,1,-0.18,,,,,,,
Raw,1644772053438,495766000000,,,-1328806775672485775,-0.4409313201904297,90.3859399841167,-32.28983570418027,26.576832914344305,0,4,0.0,15,61671369227982,503,12.7,176.83990478515625,13.610000610351562,16,0.0,0.0,1.57542003E9,,,,0,,1,-0.18,,,,,,,
Raw,1644772053438,495766000000,,,-1328806775672485775,-0.4409313201904297,90.3859399841167,-32.28983570418027,26.576832914344305,0,7,0.0,15,61671365500122,124,14.7,-309.04644775390625,3.614000082015991,16,0.0,0.0,1.57542003E9,,,,0,,1,-0.18,,,,,,,
Raw,1644772053438,495766000000,,,-1328806775672485775,-0.4409313201904297,90.3859399841167,-32.28983570418027,26.576832914344305,0,9,0.0,15,61671369852093,90,16.9,-229.3134002685547,2.680000066757202,16,0.0,0.0,1.57542003E9,,,,0,,1,-0.18,,,,,,,
Raw,1644772053438,495766000000,,,-1328806775672485775,-0.4409313201904297,90.3859399841167,-32.28983570418027,26.576832914344305,0,16,0.0,15,61671365606391,70,17.1,392.0335388183594,1.1740000247955322,16,0.0,0.0,1.57542003E9,,,,0,,1,-0.18,,,,,,,
Raw,1644772053438,495766000000,,,-1328806775672485775,-0.4409313201904297,90.3859399841167,-32.28983570418027,26.576832914344305,0,26,0.0,15,61671355899364,61,18.0,658.2638549804688,1.0989999771118164,16,0.0,0.0,1.57542003E9,,,,0,,1,-0.18,,,,,,,
Raw,1644772053438,495766000000,,,-1328806775672485775,-0.4409313201904297,90.3859399841167,-32.28983570418027,26.576832914344305,0,27,0.0,15,61671358864388,1345,16.0,-414.2883605957031,13.253500938415527,16,0.0,0.0,1.57542003E9,,,,0,,1,-0.18,,,,,,,
Raw,1644772053438,495766000000,,,-1328806775672485775,-0.4409313201904297,90.3859399841167,-32.28983570418027,26.576832914344305,0,30,0.0,15,61671358788273,61,18.8,-501.2810974121094,1.0385000705718994,16,0.0,0.0,1.57542003E9,,,,0,,1,-0.18,,,,,,,
Raw,1644772053438,495766000000,,,-1328806775672485775,-0.4409313201904297,90.3859399841167,-32.28983570418027,26.576832914344305,0,1,0.0,7183,61671352803696,24,25.5,-518.6937866210938,0.4058000147342682,16,0.0,0.0,1.57542003E9,,,,0,,6,-0.28,,,,,,,
Raw,1644772053438,495766000000,,,-1328806775672485775,-0.4409313201904297,90.3859399841167,-32.28983570418027,26.576832914344305,0,21,0.0,7183,61671359810400,134,14.6,-108.02971649169922,4.129000186920166,16,0.0,0.0,1.57542003E9,,,,0,,6,-0.28,,,,,,,
Raw,1644772053438,495766000000,,,-1328806775672485775,-0.4409313201904297,90.3859399841167,-32.28983570418027,26.576832914344305,0,27,0.0,7183,61671353285559,46,20.4,393.04205322265625,0.7669999599456787,16,0.0,0.0,1.57542003E9,,,,0,,6,-0.28,,,,,,,
Fix,GPS,37.4469178,-122.1657896,-18.779297,0.000000,9.648001,0.000000,1644772054000,1.9550192,0.0,922258384584,12.0
Fix,FLP,37.4469245,-122.1658090,-18.779297,4.530098,13.936000,127.223679,1644772054000,1.9550192,0.0,922258384584,12.0
Status,1644772054000,23,0,1,3,1575420032,30.20,174.00,26.00,1,1,0,
Status,1644772054000,23,1,1,4,1575420032,12.70,85.00,62.00,1,1,0,
Status,1644772054000,23,2,1,7,1575420032,14.70,270.00,46.00,1,1,0,
Status,1644772054000,23,3,1,9,1575420032,16.90,334.00,68.00,1,1,0,
Status,1644772054000,23,4,1,16,1575420032,17.10,54.00,40.00,1,1,0,
Status,1644772054000,23,5,1,26,1575420032,18.70,39.00,8.00,1,1,0,
Status,1644772054000,23,6,1,27,1575420032,16.00,99.00,14.00,1,1,0,
Status,1644772054000,23,7,1,30,1575420032,17.60,257.00,20.00,1,1,0,
Status,1644772054000,23,8,1,2,1575420032,0.00,0.00,0.00,0,1,0,
Status,1644772054000,23,9,1,6,1575420032,0.00,262.00,5.00,0,1,0,
Status,1644772054000,23,10,1,8,1575420032,0.00,132.00,10.00,0,1,0,
Status,1644772054000,23,11,1,20,1575420032,0.00,324.00,3.00,0,1,0,
Status,1644772054000,23,12,3,9,1602000000,21.70,28.00,49.00,0,1,0,
Status,1644772054000,23,13,3,10,1602000000,0.00,251.00,72.00,0,1,0,
Status,1644772054000,23,14,3,6,1602000000,0.00,140.00,16.00,0,1,0,
Status,1644772054000,23,15,3,1,1602000000,0.00,324.00,8.00,0,1,0,
Status,1644772054000,23,16,3,7,1602000000,0.00,126.00,68.00,0,1,0,
Status,1644772054000,23,17,3,8,1602000000,0.00,331.00,54.00,0,1,0,
Status,1644772054000,23,18,6,1,1575420032,24.50,202.00,33.00,1,1,0,
Status,1644772054000,23,19,6,21,1575420032,14.60,133.00,75.00,1,1,0,
Status,1644772054000,23,20,6,27,1575420032,18.80,45.00,35.00,1,1,0,
Status,1644772054000,23,21,6,4,1575420032,0.00,307.00,22.00,0,1,0,
Status,1644772054000,23,22,6,11,1575420032,0.00,0.00,0.00,0,1,0,
Raw,1644772054438,496766000000,,,-1328806775672485811,-0.35272979736328125,88.30428851069883,-34.8193534586056,26.675568364962672,0,9,0.0,3,10768257,40,21.7,482.46759033203125,1.0614999532699585,16,0.0,0.0,1.60087501E9,,,,0,,3,1.87,,,,,,,
Raw,1644772054438,496766000000,,,-1328806775672485811,-0.35272979736328125,88.30428851069883,-34.8193534586056,26.675568364962672,0,3,0.0,15,61672360967484,14,30.2,676.1318359375,0.025800000876188278,16,0.0,0.0,1.57542003E9,,,,0,,1,-0.2,,,,,,,
Raw,1644772054438,496766000000,,,-1328806775672485811,-0.35272979736328125,88.30428851069883,-34.8193534586056,26.675568364962672,0,4,0.0,15,61672369227392,594,12.7,176.83990478515625,15.110000610351562,16,0.0,0.0,1.57542003E9,,,,0,,1,-0.2,,,,,,,
Raw,1644772054438,496766000000,,,-1328806775672485811,-0.35272979736328125,88.30428851069883,-34.8193534586056,26.675568364962672,0,7,0.0,15,61672365501153,149,14.7,-309.04644775390625,5.11400032043457,16,0.0,0.0,1.57542003E9,,,,0,,1,-0.2,,,,,,,
Raw,1644772054438,496766000000,,,-1328806775672485811,-0.35272979736328125,88.30428851069883,-34.8193534586056,26.675568364962672,0,9,0.0,15,61672369852858,109,16.9,-229.3134002685547,4.180000305175781,16,0.0,0.0,1.57542003E9,,,,0,,1,-0.2,,,,,,,
Raw,1644772054438,496766000000,,,-1328806775672485811,-0.35272979736328125,88.30428851069883,-34.8193534586056,26.675568364962672,0,16,0.0,15,61672365605084,79,17.1,392.0335388183594,2.6740000247955322,16,0.0,0.0,1.57542003E9,,,,0,,1,-0.2,,,,,,,
Raw,1644772054438,496766000000,,,-1328806775672485811,-0.35272979736328125,88.30428851069883,-34.8193534586056,26.675568364962672,0,26,0.0,15,61672355897154,61,18.7,658.3019409179688,1.0190000534057617,16,0.0,0.0,1.57542003E9,,,,0,,1,-0.2,,,,,,,
Raw,1644772054438,496766000000,,,-1328806775672485811,-0.35272979736328125,88.30428851069883,-34.8193534586056,26.675568364962672,0,27,0.0,15,61672358865770,1434,16.0,-414.2883605957031,14.753500938415527,16,0.0,0.0,1.57542003E9,,,,0,,1,-0.2,,,,,,,
Raw,1644772054438,496766000000,,,-1328806775672485811,-0.35272979736328125,88.30428851069883,-34.8193534586056,26.675568364962672,0,30,0.0,15,61672358790101,70,17.6,-498.0556335449219,1.118499994277954,16,0.0,0.0,1.57542003E9,,,,0,,1,-0.2,,,,,,,
Raw,1644772054438,496766000000,,,-1328806775672485811,-0.35272979736328125,88.30428851069883,-34.8193534586056,26.675568364962672,0,1,0.0,7183,61672352805408,27,24.5,-516.3047485351562,0.5504999756813049,16,0.0,0.0,1.57542003E9,,,,0,,6,-0.28,,,,,,,
Raw,1644772054438,496766000000,,,-1328806775672485811,-0.35272979736328125,88.30428851069883,-34.8193534586056,26.675568364962672,0,21,0.0,7183,61672359810760,162,14.6,-108.02971649169922,5.629000186920166,16,0.0,0.0,1.57542003E9,,,,0,,6,-0.28,,,,,,,
Raw,1644772054438,496766000000,,,-1328806775672485811,-0.35272979736328125,88.30428851069883,-34.8193534586056,26.675568364962672,0,27,0.0,7183,61672353284247,61,18.8,394.7166442871094,0.8869999647140503,16,0.0,0.0,1.57542003E9,,,,0,,6,-0.28,,,,,,,
Fix,GPS,37.4469218,-122.1658154,-20.493103,0.000000,9.648001,0.000000,1644772055000,1.525549,0.0,923259912288,12.0
Fix,FLP,37.4469145,-122.1657996,-20.493103,3.082179,10.934000,130.499924,1644772055000,1.525549,0.0,923259912288,12.0
Status,1644772055000,23,0,1,3,1575420032,31.10,174.00,26.00,1,1,0,
Status,1644772055000,23,1,1,4,1575420032,12.70,85.00,62.00,0,1,0,
Status,1644772055000,23,2,1,7,1575420032,14.70,270.00,46.00,1,1,0,
Status,1644772055000,23,3,1,9,1575420032,16.90,334.00,68.00,1,1,0,
Status,1644772055000,23,4,1,16,1575420032,17.10,54.00,40.00,1,1,0,
Status,1644772055000,23,5,1,26,1575420032,18.70,39.00,8.00,1,1,0,
Status,1644772055000,23,6,1,27,1575420032,16.00,99.00,14.00,1,1,0,
Status,1644772055000,23,7,1,30,1575420032,19.20,257.00,20.00,1,1,0,
Status,1644772055000,23,8,1,2,1575420032,0.00,0.00,0.00,0,1,0,
Status,1644772055000,23,9,1,6,1575420032,0.00,262.00,5.00,0,1,0,
Status,1644772055000,23,10,1,8,1575420032,0.00,132.00,10.00,0,1,0,
Status,1644772055000,23,11,1,20,1575420032,0.00,324.00,3.00,0,1,0,
Status,1644772055000,23,12,3,9,1602000000,20.30,28.00,49.00,0,1,0,
Status,1644772055000,23,13,3,10,1602000000,0.00,251.00,72.00,0,1,0,
Status,1644772055000,23,14,3,6,1602000000,0.00,140.00,16.00,0,1,0,
Status,1644772055000,23,15,3,1,1602000000,0.00,324.00,8.00,0,1,0,
Status,1644772055000,23,16,3,7,1602000000,0.00,126.00,68.00,0,1,0,
Status,1644772055000,23,17,3,8,1602000000,0.00,331.00,54.00,0,1,0,
Status,1644772055000,23,18,6,1,1575420032,26.80,202.00,33.00,1,1,0,
Status,1644772055000,23,19,6,21,1575420032,14.60,133.00,75.00,1,1,0,
Status,1644772055000,23,20,6,27,1575420032,21.00,45.00,35.00,1,1,0,
Status,1644772055000,23,21,6,4,1575420032,0.00,307.00,22.00,0,1,0,
Status,1644772055000,23,22,6,11,1575420032,0.00,0.00,0.00,0,1,0,
Fix,GPS,37.4469184,-122.1657972,-19.672424,0.000000,9.648001,0.000000,1644772056000,2.100381,0.0,924259232284,12.0
Raw,1644772055438,497766000000,,,-1328806775672485851,-0.764678955078125,85.90828656451777,-32.783990124537794,26.562460636301463,0,9,0.0,3,10766500,46,20.3,488.9657897949219,1.131500005722046,16,0.0,0.0,1.60087501E9,,,,0,,3,1.92,,,,,,,
Raw,1644772055438,497766000000,,,-1328806775672485851,-0.764678955078125,85.90828656451777,-32.783990124537794,26.562460636301463,0,3,0.0,15,61673360965213,13,31.1,681.5888671875,0.025200000032782555,16,0.0,0.0,1.57542003E9,,,,0,,1,-0.08,,,,,,,
Raw,1644772055438,497766000000,,,-1328806775672485851,-0.764678955078125,85.90828656451777,-32.783990124537794,26.562460636301463,0,4,0.0,15,61673369226802,694,12.7,176.83990478515625,16.610000610351562,16,0.0,0.0,1.57542003E9,,,,0,,1,-0.08,,,,,,,
Raw,1644772055438,497766000000,,,-1328806775672485851,-0.764678955078125,85.90828656451777,-32.783990124537794,26.562460636301463,0,7,0.0,15,61673365502184,184,14.7,-309.04644775390625,6.61400032043457,16,0.0,0.0,1.57542003E9,,,,0,,1,-0.08,,,,,,,
Raw,1644772055438,497766000000,,,-1328806775672485851,-0.764678955078125,85.90828656451777,-32.783990124537794,26.562460636301463,0,9,0.0,15,61673369853623,138,16.9,-229.3134002685547,5.680000305175781,16,0.0,0.0,1.57542003E9,,,,0,,1,-0.08,,,,,,,
Raw,1644772055438,497766000000,,,-1328806775672485851,-0.764678955078125,85.90828656451777,-32.783990124537794,26.562460636301463,0,16,0.0,15,61673365603776,98,17.1,392.0335388183594,4.174000263214111,16,0.0,0.0,1.57542003E9,,,,0,,1,-0.08,,,,,,,
Raw,1644772055438,497766000000,,,-1328806775672485851,-0.764678955078125,85.90828656451777,-32.783990124537794,26.562460636301463,0,26,0.0,15,61673355894958,69,18.7,658.3019409179688,2.5190000534057617,16,0.0,0.0,1.57542003E9,,,,0,,1,-0.08,,,,,,,
Raw,1644772055438,497766000000,,,-1328806775672485851,-0.764678955078125,85.90828656451777,-32.783990124537794,26.562460636301463,0,27,0.0,15,61673358867152,1533,16.0,-414.2883605957031,16.25349998474121,16,0.0,0.0,1.57542003E9,,,,0,,1,-0.08,,,,,,,
Raw,1644772055438,497766000000,,,-1328806775672485851,-0.764678955078125,85.90828656451777,-32.783990124537794,26.562460636301463,0,30,0.0,15,61673358791644,53,19.2,-491.96624755859375,1.0385000705718994,16,0.0,0.0,1.57542003E9,,,,0,,1,-0.08,,,,,,,
Raw,1644772055438,497766000000,,,-1328806775672485851,-0.764678955078125,85.90828656451777,-32.783990124537794,26.562460636301463,0,1,0.0,7183,61673352807103,21,26.8,-510.71044921875,0.13520000874996185,16,0.0,0.0,1.57542003E9,,,,0,,6,-0.16,,,,,,,
Raw,1644772055438,497766000000,,,-1328806775672485851,-0.764678955078125,85.90828656451777,-32.783990124537794,26.562460636301463,0,21,0.0,7183,61673359811121,201,14.6,-108.02971649169922,7.129000186920166,16,0.0,0.0,1.57542003E9,,,,0,,6,-0.16,,,,,,,
Raw,1644772055438,497766000000,,,-1328806775672485851,-0.764678955078125,85.90828656451777,-32.783990124537794,26.562460636301463,0,27,0.0,7183,61673353282968,40,21.0,400.330322265625,0.6919999718666077,16,0.0,0.0,1.57542003E9,,,,0,,6,-0.16,,,,,,,
Fix,FLP,37.4469110,-122.1657890,-19.672424,2.113425,10.076000,126.632385,1644772056000,2.100381,0.0,924259232284,12.0
Status,1644772056000,23,0,1,3,1575420032,31.40,174.00,26.00,1,1,0,
Status,1644772056000,23,1,1,4,1575420032,12.70,85.00,62.00,0,1,0,
Status,1644772056000,23,2,1,7,1575420032,14.70,270.00,46.00,1,1,0,
Status,1644772056000,23,3,1,9,1575420032,16.90,334.00,68.00,1,1,0,
Status,1644772056000,23,4,1,16,1575420032,17.10,54.00,40.00,1,1,0,
Status,1644772056000,23,5,1,26,1575420032,18.70,39.00,8.00,1,1,0,
Status,1644772056000,23,6,1,27,1575420032,16.00,99.00,14.00,0,1,0,
Status,1644772056000,23,7,1,30,1575420032,18.50,257.00,20.00,1,1,0,
Status,1644772056000,23,8,1,2,1575420032,0.00,0.00,0.00,0,1,0,
Status,1644772056000,23,9,1,6,1575420032,0.00,262.00,5.00,0,1,0,
Status,1644772056000,23,10,1,8,1575420032,0.00,132.00,10.00,0,1,0,
Status,1644772056000,23,11,1,20,1575420032,0.00,324.00,3.00,0,1,0,
Status,1644772056000,23,12,3,9,1602000000,21.50,28.00,49.00,0,1,0,
Status,1644772056000,23,13,3,10,1602000000,0.00,251.00,72.00,0,1,0,
Status,1644772056000,23,14,3,6,1602000000,0.00,140.00,16.00,0,1,0,
Status,1644772056000,23,15,3,1,1602000000,0.00,324.00,8.00,0,1,0,
Status,1644772056000,23,16,3,7,1602000000,0.00,126.00,68.00,0,1,0,
Status,1644772056000,23,17,3,8,1602000000,0.00,331.00,54.00,0,1,0,
Status,1644772056000,23,18,6,1,1575420032,27.10,202.00,33.00,1,1,0,
Status,1644772056000,23,19,6,21,1575420032,14.60,133.00,75.00,1,1,0,
Status,1644772056000,23,20,6,27,1575420032,19.80,45.00,35.00,1,1,0,
Status,1644772056000,23,21,6,4,1575420032,0.00,307.00,22.00,0,1,0,
Status,1644772056000,23,22,6,11,1575420032,0.00,0.00,0.00,0,1,0,
Raw,1644772056438,498766000000,,,-1328806775672485873,-0.8481998443603516,86.09555516159162,-28.56709121734317,26.857108241755274,0,9,0.0,3,10764887,40,21.5,490.8572082519531,1.0614999532699585,16,0.0,0.0,1.60087501E9,,,,0,,3,1.94,,,,,,,
Raw,1644772056438,498766000000,,,-1328806775672485873,-0.8481998443603516,86.09555516159162,-28.56709121734317,26.857108241755274,0,3,0.0,15,61674360962963,13,31.4,682.9264526367188,0.025200000032782555,16,0.0,0.0,1.57542003E9,,,,0,,1,-0.03,,,,,,,
Raw,1644772056438,498766000000,,,-1328806775672485873,-0.8481998443603516,86.09555516159162,-28.56709121734317,26.857108241755274,0,4,0.0,15,61674369226212,805,12.7,176.83990478515625,18.110000610351562,16,0.0,0.0,1.57542003E9,,,,0,,1,-0.03,,,,,,,
Raw,1644772056438,498766000000,,,-1328806775672485873,-0.8481998443603516,86.09555516159162,-28.56709121734317,26.857108241755274,0,7,0.0,15,61674365503214,228,14.7,-309.04644775390625,8.11400032043457,16,0.0,0.0,1.57542003E9,,,,0,,1,-0.03,,,,,,,
Raw,1644772056438,498766000000,,,-1328806775672485873,-0.8481998443603516,86.09555516159162,-28.56709121734317,26.857108241755274,0,9,0.0,15,61674369854388,177,16.9,-229.3134002685547,7.180000305175781,16,0.0,0.0,1.57542003E9,,,,0,,1,-0.03,,,,,,,
Raw,1644772056438,498766000000,,,-1328806775672485873,-0.8481998443603516,86.09555516159162,-28.56709121734317,26.857108241755274,0,16,0.0,15,61674365602468,127,17.1,392.0335388183594,5.674000263214111,16,0.0,0.0,1.57542003E9,,,,0,,1,-0.03,,,,,,,
